[{"id":"1","division_id":"1","name_en":"Comilla","name_bn":"কুমিল্লা","latitude":"23.4682747","longitude":"91.1788135","url":"www.comilla.gov.bd"},{"id":"2","division_id":"1","name_en":"Feni","name_bn":"ফেনী","latitude":"23.023231","longitude":"91.3840844","url":"www.feni.gov.bd"},{"id":"3","division_id":"1","name_en":"Brahmanbaria","name_bn":"ব্রাহ্মণবাড়িয়া","latitude":"23.9570904","longitude":"91.1119286","url":"www.brahmanbaria.gov.bd"},{"id":"4","division_id":"1","name_en":"Rangamati","name_bn":"রাঙ্গামাটি","latitude":null,"longitude":null,"url":"www.rangamati.gov.bd"},{"id":"5","division_id":"1","name_en":"Noakhali","name_bn":"নোয়াখালী","latitude":"22.869563","longitude":"91.099398","url":"www.noakhali.gov.bd"},{"id":"6","division_id":"1","name_en":"Chandpur","name_bn":"চাঁদপুর","latitude":"23.2332585","longitude":"90.6712912","url":"www.chandpur.gov.bd"},{"id":"7","division_id":"1","name_en":"Lakshmipur","name_bn":"লক্ষ্মীপুর","latitude":"22.942477","longitude":"90.841184","url":"www.lakshmipur.gov.bd"},{"id":"8","division_id":"1","name_en":"Chattogram","name_bn":"চট্টগ্রাম","latitude":"22.335109","longitude":"91.834073","url":"www.chittagong.gov.bd"},{"id":"9","division_id":"1","name_en":"Coxsbazar","name_bn":"কক্সবাজার","latitude":null,"longitude":null,"url":"www.coxsbazar.gov.bd"},{"id":"10","division_id":"1","name_en":"Khagrachhari","name_bn":"খাগড়াছড়ি","latitude":"23.119285","longitude":"91.984663","url":"www.khagrachhari.gov.bd"},{"id":"11","division_id":"1","name_en":"Bandarban","name_bn":"বান্দরবান","latitude":"22.1953275","longitude":"92.2183773","url":"www.bandarban.gov.bd"},{"id":"12","division_id":"2","name_en":"Sirajganj","name_bn":"সিরাজগঞ্জ","latitude":"24.4533978","longitude":"89.7006815","url":"www.sirajganj.gov.bd"},{"id":"13","division_id":"2","name_en":"Pabna","name_bn":"পাবনা","latitude":"23.998524","longitude":"89.233645","url":"www.pabna.gov.bd"},{"id":"14","division_id":"2","name_en":"Bogura","name_bn":"বগুড়া","latitude":"24.8465228","longitude":"89.377755","url":"www.bogra.gov.bd"},{"id":"15","division_id":"2","name_en":"Rajshahi","name_bn":"রাজশাহী","latitude":null,"longitude":null,"url":"www.rajshahi.gov.bd"},{"id":"16","division_id":"2","name_en":"Natore","name_bn":"নাটোর","latitude":"24.420556","longitude":"89.000282","url":"www.natore.gov.bd"},{"id":"17","division_id":"2","name_en":"Joypurhat","name_bn":"জয়পুরহাট","latitude":null,"longitude":null,"url":"www.joypurhat.gov.bd"},{"id":"18","division_id":"2","name_en":"Chapainawabganj","name_bn":"চাঁপাইনবাবগঞ্জ","latitude":"24.5965034","longitude":"88.2775122","url":"www.chapainawabganj.gov.bd"},{"id":"19","division_id":"2","name_en":"Naogaon","name_bn":"নওগাঁ","latitude":null,"longitude":null,"url":"www.naogaon.gov.bd"},{"id":"20","division_id":"3","name_en":"Jashore","name_bn":"যশোর","latitude":"23.16643","longitude":"89.2081126","url":"www.jessore.gov.bd"},{"id":"21","division_id":"3","name_en":"Satkhira","name_bn":"সাতক্ষীরা","latitude":null,"longitude":null,"url":"www.satkhira.gov.bd"},{"id":"22","division_id":"3","name_en":"Meherpur","name_bn":"মেহেরপুর","latitude":"23.762213","longitude":"88.631821","url":"www.meherpur.gov.bd"},{"id":"23","division_id":"3","name_en":"Narail","name_bn":"নড়াইল","latitude":"23.172534","longitude":"89.512672","url":"www.narail.gov.bd"},{"id":"24","division_id":"3","name_en":"Chuadanga","name_bn":"চুয়াডাঙ্গা","latitude":"23.6401961","longitude":"88.841841","url":"www.chuadanga.gov.bd"},{"id":"25","division_id":"3","name_en":"Kushtia","name_bn":"কুষ্টিয়া","latitude":"23.901258","longitude":"89.120482","url":"www.kushtia.gov.bd"},{"id":"26","division_id":"3","name_en":"Magura","name_bn":"মাগুরা","latitude":"23.487337","longitude":"89.419956","url":"www.magura.gov.bd"},{"id":"27","division_id":"3","name_en":"Khulna","name_bn":"খুলনা","latitude":"22.815774","longitude":"89.568679","url":"www.khulna.gov.bd"},{"id":"28","division_id":"3","name_en":"Bagerhat","name_bn":"বাগেরহাট","latitude":"22.651568","longitude":"89.785938","url":"www.bagerhat.gov.bd"},{"id":"29","division_id":"3","name_en":"Jhenaidah","name_bn":"ঝিনাইদহ","latitude":"23.5448176","longitude":"89.1539213","url":"www.jhenaidah.gov.bd"},{"id":"30","division_id":"4","name_en":"Jhalakathi","name_bn":"ঝালকাঠি","latitude":null,"longitude":null,"url":"www.jhalakathi.gov.bd"},{"id":"31","division_id":"4","name_en":"Patuakhali","name_bn":"পটুয়াখালী","latitude":"22.3596316","longitude":"90.3298712","url":"www.patuakhali.gov.bd"},{"id":"32","division_id":"4","name_en":"Pirojpur","name_bn":"পিরোজপুর","latitude":null,"longitude":null,"url":"www.pirojpur.gov.bd"},{"id":"33","division_id":"4","name_en":"Barisal","name_bn":"বরিশাল","latitude":null,"longitude":null,"url":"www.barisal.gov.bd"},{"id":"34","division_id":"4","name_en":"Bhola","name_bn":"ভোলা","latitude":"22.685923","longitude":"90.648179","url":"www.bhola.gov.bd"},{"id":"35","division_id":"4","name_en":"Barguna","name_bn":"বরগুনা","latitude":null,"longitude":null,"url":"www.barguna.gov.bd"},{"id":"36","division_id":"5","name_en":"Sylhet","name_bn":"সিলেট","latitude":"24.8897956","longitude":"91.8697894","url":"www.sylhet.gov.bd"},{"id":"37","division_id":"5","name_en":"Moulvibazar","name_bn":"মৌলভীবাজার","latitude":"24.482934","longitude":"91.777417","url":"www.moulvibazar.gov.bd"},{"id":"38","division_id":"5","name_en":"Habiganj","name_bn":"হবিগঞ্জ","latitude":"24.374945","longitude":"91.41553","url":"www.habiganj.gov.bd"},{"id":"39","division_id":"5","name_en":"Sunamganj","name_bn":"সুনামগঞ্জ","latitude":"25.0658042","longitude":"91.3950115","url":"www.sunamganj.gov.bd"},{"id":"40","division_id":"6","name_en":"Narsingdi","name_bn":"নরসিংদী","latitude":"23.932233","longitude":"90.71541","url":"www.narsingdi.gov.bd"},{"id":"41","division_id":"6","name_en":"Gazipur","name_bn":"গাজীপুর","latitude":"24.0022858","longitude":"90.4264283","url":"www.gazipur.gov.bd"},{"id":"42","division_id":"6","name_en":"Shariatpur","name_bn":"শরীয়তপুর","latitude":null,"longitude":null,"url":"www.shariatpur.gov.bd"},{"id":"43","division_id":"6","name_en":"Narayanganj","name_bn":"নারায়ণগঞ্জ","latitude":"23.63366","longitude":"90.496482","url":"www.narayanganj.gov.bd"},{"id":"44","division_id":"6","name_en":"Tangail","name_bn":"টাঙ্গাইল","latitude":null,"longitude":null,"url":"www.tangail.gov.bd"},{"id":"45","division_id":"6","name_en":"Kishoreganj","name_bn":"কিশোরগঞ্জ","latitude":"24.444937","longitude":"90.776575","url":"www.kishoreganj.gov.bd"},{"id":"46","division_id":"6","name_en":"Manikganj","name_bn":"মানিকগঞ্জ","latitude":null,"longitude":null,"url":"www.manikganj.gov.bd"},{"id":"47","division_id":"6","name_en":"Dhaka","name_bn":"ঢাকা","latitude":"23.7115253","longitude":"90.4111451","url":"www.dhaka.gov.bd"},{"id":"48","division_id":"6","name_en":"Munshiganj","name_bn":"মুন্সিগঞ্জ","latitude":null,"longitude":null,"url":"www.munshiganj.gov.bd"},{"id":"49","division_id":"6","name_en":"Rajbari","name_bn":"রাজবাড়ী","latitude":"23.7574305","longitude":"89.6444665","url":"www.rajbari.gov.bd"},{"id":"50","division_id":"6","name_en":"Madaripur","name_bn":"মাদারীপুর","latitude":"23.164102","longitude":"90.1896805","url":"www.madaripur.gov.bd"},{"id":"51","division_id":"6","name_en":"Gopalganj","name_bn":"গোপালগঞ্জ","latitude":"23.0050857","longitude":"89.8266059","url":"www.gopalganj.gov.bd"},{"id":"52","division_id":"6","name_en":"Faridpur","name_bn":"ফরিদপুর","latitude":"23.6070822","longitude":"89.8429406","url":"www.faridpur.gov.bd"},{"id":"53","division_id":"7","name_en":"Panchagarh","name_bn":"পঞ্চগড়","latitude":"26.3411","longitude":"88.5541606","url":"www.panchagarh.gov.bd"},{"id":"54","division_id":"7","name_en":"Dinajpur","name_bn":"দিনাজপুর","latitude":"25.6217061","longitude":"88.6354504","url":"www.dinajpur.gov.bd"},{"id":"55","division_id":"7","name_en":"Lalmonirhat","name_bn":"লালমনিরহাট","latitude":null,"longitude":null,"url":"www.lalmonirhat.gov.bd"},{"id":"56","division_id":"7","name_en":"Nilphamari","name_bn":"নীলফামারী","latitude":"25.931794","longitude":"88.856006","url":"www.nilphamari.gov.bd"},{"id":"57","division_id":"7","name_en":"Gaibandha","name_bn":"গাইবান্ধা","latitude":"25.328751","longitude":"89.528088","url":"www.gaibandha.gov.bd"},{"id":"58","division_id":"7","name_en":"Thakurgaon","name_bn":"ঠাকুরগাঁও","latitude":"26.0336945","longitude":"88.4616834","url":"www.thakurgaon.gov.bd"},{"id":"59","division_id":"7","name_en":"Rangpur","name_bn":"রংপুর","latitude":"25.7558096","longitude":"89.244462","url":"www.rangpur.gov.bd"},{"id":"60","division_id":"7","name_en":"Kurigram","name_bn":"কুড়িগ্রাম","latitude":"25.805445","longitude":"89.636174","url":"www.kurigram.gov.bd"},{"id":"61","division_id":"8","name_en":"Sherpur","name_bn":"শেরপুর","latitude":"25.0204933","longitude":"90.0152966","url":"www.sherpur.gov.bd"},{"id":"62","division_id":"8","name_en":"Mymensingh","name_bn":"ময়মনসিংহ","latitude":null,"longitude":null,"url":"www.mymensingh.gov.bd"},{"id":"63","division_id":"8","name_en":"Jamalpur","name_bn":"জামালপুর","latitude":"24.937533","longitude":"89.937775","url":"www.jamalpur.gov.bd"},{"id":"64","division_id":"8","name_en":"Netrokona","name_bn":"নেত্রকোণা","latitude":"24.870955","longitude":"90.727887","url":"www.netrokona.gov.bd"}]